{
"type": "FeatureCollection",
"crs": { "type": "name", "properties": { "name": "urn:ogc:def:crs:OGC:1.3:CRS84" } },
                                                                                
"features": [
{ "type": "Feature", "properties": { "ID": 1, "NAME_EN": "Ali Ben Abi Taleb Elementary School", "NAME_AR": "ابتدائية علي بن ابي طالب", "Latitude": "33°53'12.29\"N", "Longitude": "35°30'25.62\"E" }, "geometry": { "type": "Point", "coordinates": [ 35.507116666666668, 33.886747222222219 ] } },
{ "type": "Feature", "properties": { "ID": 2, "NAME_EN": "Al Amiliya Secondary School South Building", "NAME_AR": "الثانوية العاملية المبنى الجنوبي", "Latitude": "33°52'58.17\"N", "Longitude": "35°30'20.69\"E" }, "geometry": { "type": "Point", "coordinates": [ 35.505747222222219, 33.882825 ] } },
{ "type": "Feature", "properties": { "ID": 3, "NAME_EN": "Al Amiliya for Girls", "NAME_AR": "العاملية للبنات", "Latitude": "33°53'3.22\"N", "Longitude": "35°30'18.14\"E" }, "geometry": { "type": "Point", "coordinates": [ 35.50503888888889, 33.884227777777781 ] } },
{ "type": "Feature", "properties": { "ID": 4, "NAME_EN": "Armenian Evangelical High School", "NAME_AR": "المدرسة الارمنية الانجيلية العالية", "Latitude": "33°53'46.93\"N", "Longitude": "35°29'32.66\"E" }, "geometry": { "type": "Point", "coordinates": [ 35.492405555555557, 33.896369444444446 ] } },
{ "type": "Feature", "properties": { "ID": 5, "NAME_EN": "Sisters of Charity Lazarite High School", "NAME_AR": "المدرسة الثانوية لراهبات المحبة العازارية", "Latitude": "33°53'21.27\"N", "Longitude": "35°31'20.65\"E" }, "geometry": { "type": "Point", "coordinates": [ 35.522402777777778, 33.889241666666663 ] } },
{ "type": "Feature", "properties": { "ID": 6, "NAME_EN": "Central Armenian Evangelical School", "NAME_AR": "المدرسة المركزية الارمنية الانجيلية", "Latitude": "33°53'46.67\"N", "Longitude": "35°31'39.56\"E" }, "geometry": { "type": "Point", "coordinates": [ 35.527655555555555, 33.896297222222223 ] } },
{ "type": "Feature", "properties": { "ID": 7, "NAME_EN": "Maaniyya School", "NAME_AR": "المدرسة المعنية", "Latitude": "33°53'25.09\"N", "Longitude": "35°29'43.05\"E" }, "geometry": { "type": "Point", "coordinates": [ 35.495291666666667, 33.890302777777777 ] } },
{ "type": "Feature", "properties": { "ID": 8, "NAME_EN": "Al Manara Middle School for Girls", "NAME_AR": "المدرسة المنارة المتوسطة للبنات", "Latitude": "33°53'39.82\"N", "Longitude": "35°28'30.82\"E" }, "geometry": { "type": "Point", "coordinates": [ 35.475227777777775, 33.894394444444444 ] } },
{ "type": "Feature", "properties": { "ID": 9, "NAME_EN": "Al Makassed Al Islamiya for Boys", "NAME_AR": "المقاصد الإسلامية للبنين", "Latitude": "33°53'12.96\"N", "Longitude": "35°30'42.69\"E" }, "geometry": { "type": "Point", "coordinates": [ 35.511858333333336, 33.886933333333332 ] } },
{ "type": "Feature", "properties": { "ID": 11, "NAME_EN": "Ras Beirut (1) Complementary Mixed School", "NAME_AR": "تكميلية راس بيروت الاولى المختلطة", "Latitude": "33° 53' 55.0746\"N", "Longitude": "35° 28' 42.7074\"E" }, "geometry": { "type": "Point", "coordinates": [ 35.478529833333333, 33.898631833333333 ] } },
{ "type": "Feature", "properties": { "ID": 14, "NAME_EN": "Al Hariri High School (2) Batrakiyyeh", "NAME_AR": "ثانوية الحريري الثانية البطريركية", "Latitude": "33°53'29.79\"N", "Longitude": "35°29'47.39\"E" }, "geometry": { "type": "Point", "coordinates": [ 35.496497222222224, 33.89160833333333 ] } },
{ "type": "Feature", "properties": { "ID": 15, "NAME_EN": "Al Shahid Al Mufti Hassan Khaled High School", "NAME_AR": "ثانوية الشهيد المفتي حسن خالد ) حوض الولاية – برج ابي حيدر(", "Latitude": "33°53'18.70\"N", "Longitude": "35°30'0.37\"E" }, "geometry": { "type": "Point", "coordinates": [ 35.500102777777776, 33.888527777777774 ] } },
{ "type": "Feature", "properties": { "ID": 16, "NAME_EN": "Al Makassed Al Islamiyya High School for Girls", "NAME_AR": "ثانوية المقاصد الاسلامية للبنات", "Latitude": "33°53'27.45\"N", "Longitude": "35°30'5.74\"E" }, "geometry": { "type": "Point", "coordinates": [ 35.501594444444443, 33.89095833333333 ] } },
{ "type": "Feature", "properties": { "ID": 17, "NAME_EN": "Khaled Ben El Walid Al Makassed High School", "NAME_AR": "ثانوية خالد بن الوليد المقاصد", "Latitude": "33°52'35.73\"N", "Longitude": "35°30'23.56\"E" }, "geometry": { "type": "Point", "coordinates": [ 35.506544444444444, 33.87659166666667 ] } },
{ "type": "Feature", "properties": { "ID": 18, "NAME_EN": "Khadija High School", "NAME_AR": "ثانوية خديجة الكبرى", "Latitude": "33°53'22.54\"N", "Longitude": "35°29'9.18\"E" }, "geometry": { "type": "Point", "coordinates": [ 35.485883333333334, 33.889594444444441 ] } },
{ "type": "Feature", "properties": { "ID": 19, "NAME_EN": "Ras El Nabeh High School for Boys", "NAME_AR": "ثانوية راس النبع للبنين", "Latitude": "33°53'2.12\"N", "Longitude": "35°30'17.91\"E" }, "geometry": { "type": "Point", "coordinates": [ 35.504975, 33.883922222222225 ] } },
{ "type": "Feature", "properties": { "ID": 20, "NAME_EN": "René Mouawad High School for Boys", "NAME_AR": "ثانوية رينيه معوض للبنين", "Latitude": "33°53'29.33\"N", "Longitude": "35°29'13.07\"E" }, "geometry": { "type": "Point", "coordinates": [ 35.486963888888887, 33.891480555555553 ] } },
{ "type": "Feature", "properties": { "ID": 21, "NAME_EN": "Ali Ben Abi Taleb High School", "NAME_AR": "ثانوية علي بن ابي طالب", "Latitude": "33°53'11.5\"N", "Longitude": "35°30'24.7\"E" }, "geometry": { "type": "Point", "coordinates": [ 35.506861111111114, 33.886527777777779 ] } },
{ "type": "Feature", "properties": { "ID": 22, "NAME_EN": "Omar Farroukh Public High School for Girls", "NAME_AR": "ثانوية عمر فروخ الرسمية للبنات", "Latitude": "33°52'22.13\"N", "Longitude": "35°29'43.54\"E" }, "geometry": { "type": "Point", "coordinates": [ 35.495427777777778, 33.872813888888892 ] } },
{ "type": "Feature", "properties": { "ID": 23, "NAME_EN": "Fakhr El Dine Al Maani High School for Girls", "NAME_AR": "ثانوية فخر الدين المعني للبنات", "Latitude": "33°52'57\"N", "Longitude": "35°30'3\"E" }, "geometry": { "type": "Point", "coordinates": [ 35.500833333333333, 33.8825 ] } },
{ "type": "Feature", "properties": { "ID": 24, "NAME_EN": "Verdun High School", "NAME_AR": "ثانوية فردان مقابل سيار الدرك", "Latitude": "33°53'4.93\"N", "Longitude": "35°28'57.92\"E" }, "geometry": { "type": "Point", "coordinates": [ 35.482755555555556, 33.884702777777775 ] } },
{ "type": "Feature", "properties": { "ID": 25, "NAME_EN": "Laure Moukhayzel High School for Girls Shahrouri", "NAME_AR": "ثانوية لور مغيزل للبنات الشحروري", "Latitude": "33°53'24.39\"N", "Longitude": "35°31'41.76\"E" }, "geometry": { "type": "Point", "coordinates": [ 35.528266666666667, 33.89010833333333 ] } },
{ "type": "Feature", "properties": { "ID": 26, "NAME_EN": "Dar Al Mouaallimin Wal Mouaallimat", "NAME_AR": "دار المعلمين و المعلمات", "Latitude": "33°52'8.81\"N", "Longitude": "35°29'37.93\"E" }, "geometry": { "type": "Point", "coordinates": [ 35.493869444444442, 33.86911388888889 ] } },
{ "type": "Feature", "properties": { "ID": 27, "NAME_EN": "City International School", "NAME_AR": "سيتي انترناسيونال سكول", "Latitude": "33°53'39.21\"N", "Longitude": "35°29'50.53\"E" }, "geometry": { "type": "Point", "coordinates": [ 35.497369444444445, 33.894225 ] } },
{ "type": "Feature", "properties": { "ID": 28, "NAME_EN": "Electricité du Liban Company", "NAME_AR": "شركة كهرباء لبنان", "Latitude": "33°53'46.46\"N", "Longitude": "35°31'17.97\"E" }, "geometry": { "type": "Point", "coordinates": [ 35.521658333333335, 33.896238888888888 ] } },
{ "type": "Feature", "properties": { "ID": 29, "NAME_EN": "Beirut Municipality Building Block B", "NAME_AR": "مبنى البلدية - جنب فوج الاطفاء -جادة شارل حلو - ( البيت البتروني ) بلو ك B", "Latitude": "33°53'57.41\"N", "Longitude": "35°32'2.99\"E" }, "geometry": { "type": "Point", "coordinates": [ 35.534163888888891, 33.899280555555556 ] } },
{ "type": "Feature", "properties": { "ID": 30, "NAME_EN": "Beirut Municipality Building Karantina Garden", "NAME_AR": "مبنى البلدية -- حديقة الكرنتينا", "Latitude": "33°54'5.44\"N", "Longitude": "35°31'48.60\"E" }, "geometry": { "type": "Point", "coordinates": [ 35.530166666666666, 33.901511111111112 ] } },
{ "type": "Feature", "properties": { "ID": 31, "NAME_EN": "Beirut Municipality Building Block A", "NAME_AR": "مبنى البلدية -جانب فوج الاطفاء -جادة شارل الحلو ( البيت البتروني ) بلو ك A", "Latitude": "33°53'57.41\"N", "Longitude": "35°32'2.99\"E" }, "geometry": { "type": "Point", "coordinates": [ 35.534163888888891, 33.899280555555556 ] } },
{ "type": "Feature", "properties": { "ID": 33, "NAME_EN": "Middle School for Girls (2)", "NAME_AR": "متوسطة البنات الثانية", "Latitude": "33° 53' 10.3308\"N", "Longitude": "35° 30' 13.23\"E" }, "geometry": { "type": "Point", "coordinates": [ 35.503675, 33.886203 ] } },
{ "type": "Feature", "properties": { "ID": 34, "NAME_EN": "Al Moustaqbal Mixed Middle School", "NAME_AR": "متوسطة المستقبل المختلطة", "Latitude": "33° 53' 21.9942\"N", "Longitude": "35° 30' 3.0702\"E" }, "geometry": { "type": "Point", "coordinates": [ 35.500852833333333, 33.889442833333334 ] } },
{ "type": "Feature", "properties": { "ID": 35, "NAME_EN": "Beirut High Middle School for Girls", "NAME_AR": "متوسطة بيروت العالية للبنات", "Latitude": "33°53'5.32\"N", "Longitude": "35°30'20.69\"E" }, "geometry": { "type": "Point", "coordinates": [ 35.505747222222219, 33.884811111111112 ] } },
{ "type": "Feature", "properties": { "ID": 36, "NAME_EN": "Charles Helou Station Block A", "NAME_AR": "محطة شارل حلو بلوك A", "Latitude": "33°53'49.27\"N", "Longitude": "35°30'48.90\"E" }, "geometry": { "type": "Point", "coordinates": [ 35.513583333333337, 33.897019444444446 ] } },
{ "type": "Feature", "properties": { "ID": 37, "NAME_EN": "Charles Helou Station Block B", "NAME_AR": "محطة شارل حلو بلوك B", "Latitude": "33°53'49.27\"N", "Longitude": "35°30'48.90\"E" }, "geometry": { "type": "Point", "coordinates": [ 35.513583333333337, 33.897019444444446 ] } },
{ "type": "Feature", "properties": { "ID": 38, "NAME_EN": "Abi Baqr Al Siddiq School Kantari", "NAME_AR": "مدرسة ابي بكر الصديق القنطاري", "Latitude": "33°53'44.16\"N", "Longitude": "35°29'35.07\"E" }, "geometry": { "type": "Point", "coordinates": [ 35.493075, 33.8956 ] } },
{ "type": "Feature", "properties": { "ID": 39, "NAME_EN": "Al Irshad School for Girls", "NAME_AR": "مدرسة الارشاد للبنات", "Latitude": "33° 52' 56.931\"N", "Longitude": "35° 29' 55.4022\"E" }, "geometry": { "type": "Point", "coordinates": [ 35.498722833333332, 33.882480833333332 ] } },
{ "type": "Feature", "properties": { "ID": 40, "NAME_EN": "Ashrafieh Mixed Public High School (3)", "NAME_AR": "مدرسة الاشرفية الثالثة الرسمية المختلطة", "Latitude": "33°53'45.42\"N", "Longitude": "35°31'34.84\"E" }, "geometry": { "type": "Point", "coordinates": [ 35.526344444444447, 33.89595 ] } },
{ "type": "Feature", "properties": { "ID": 41, "NAME_EN": "Al Imdad School", "NAME_AR": "مدرسة الامداد", "Latitude": "33°53'27.20\"N", "Longitude": "35°29'56.43\"E" }, "geometry": { "type": "Point", "coordinates": [ 35.499008333333336, 33.890888888888888 ] } },
{ "type": "Feature", "properties": { "ID": 42, "NAME_EN": "Mir Shakib Arslan Mixed Middle School", "NAME_AR": "مدرسة الامير شكيب ارسلان المتوسطة المختلطة", "Latitude": "33°53'19.7\"N", "Longitude": " 35°28'53.4\"E" }, "geometry": { "type": "Point", "coordinates": [ 35.4815, 33.888805555555557 ] } },
{ "type": "Feature", "properties": { "ID": 43, "NAME_EN": "Al Basta Mixed School (2)", "NAME_AR": "مدرسة البسطة الثانية المختلطة", "Latitude": "33° 53' 11.8674\"N", "Longitude": "35° 29' 55.9464\"E" }, "geometry": { "type": "Point", "coordinates": [ 35.498874, 33.88662983333333 ] } },
{ "type": "Feature", "properties": { "ID": 44, "NAME_EN": "Patriarchate School", "NAME_AR": "مدرسة البطريركية", "Latitude": "33°53'25.37\"N", "Longitude": "35°29'47.31\"E" }, "geometry": { "type": "Point", "coordinates": [ 35.496475, 33.890380555555552 ] } },
{ "type": "Feature", "properties": { "ID": 45, "NAME_EN": "Girls Public School (1)", "NAME_AR": "مدرسة البنات الاولى الرسمية", "Latitude": "33°53'21.65\"N", "Longitude": "35°30'3.77\"E" }, "geometry": { "type": "Point", "coordinates": [ 35.501047222222219, 33.88934722222222 ] } },
{ "type": "Feature", "properties": { "ID": 46, "NAME_EN": "Al Tabaris Public School", "NAME_AR": "مدرسة التباريس الرسمية", "Latitude": "33°53'37.41\"N", "Longitude": "35°30'43.80\"E" }, "geometry": { "type": "Point", "coordinates": [ 35.512166666666666, 33.893725 ] } },
{ "type": "Feature", "properties": { "ID": 47, "NAME_EN": "Christian Association School for Girls", "NAME_AR": "مدرسة الجمعية المسيحية للشابات", "Latitude": "33°54'00.6\"N", "Longitude": "35°29'28.9\"E" }, "geometry": { "type": "Point", "coordinates": [ 35.491361111111111, 33.900166666666664 ] } },
{ "type": "Feature", "properties": { "ID": 48, "NAME_EN": "Sagesse School", "NAME_AR": "مدرسة الحكمة", "Latitude": "33°53'53.03\"N", "Longitude": "35°29'41.61\"E" }, "geometry": { "type": "Point", "coordinates": [ 35.494891666666668, 33.898063888888892 ] } },
{ "type": "Feature", "properties": { "ID": 51, "NAME_EN": "Tariq Al Jdideh Public Middle School for Girls", "NAME_AR": "مدرسة الطريق الجديدة المتوسطة الرسمية الثانية للبنات", "Latitude": "33°52'30.13\"N", "Longitude": "35°30'24.43\"E" }, "geometry": { "type": "Point", "coordinates": [ 35.506786111111111, 33.875036111111115 ] } },
{ "type": "Feature", "properties": { "ID": 52, "NAME_EN": "Frères Sacré Cœur School", "NAME_AR": "مدرسة الفرير – القلب الاقدس", "Latitude": "33°53'10.85\"N", "Longitude": "35°31'33.29\"E" }, "geometry": { "type": "Point", "coordinates": [ 35.525913888888887, 33.88634722222222 ] } },
{ "type": "Feature", "properties": { "ID": 54, "NAME_EN": "Cappucine School", "NAME_AR": "مدرسة الكبوشية", "Latitude": "33°53'41.42\"N", "Longitude": "35°29'6.28\"E" }, "geometry": { "type": "Point", "coordinates": [ 35.485077777777775, 33.894838888888891 ] } },
{ "type": "Feature", "properties": { "ID": 56, "NAME_EN": "Uruguay Public Mixed School", "NAME_AR": "مدرسة اورغواي الرسمية المختلطة", "Latitude": "33°53'23.07\"N", "Longitude": "35°31'34.97\"E" }, "geometry": { "type": "Point", "coordinates": [ 35.526380555555555, 33.889741666666666 ] } },
{ "type": "Feature", "properties": { "ID": 57, "NAME_EN": "Ras Al Nabeh School for Girls (1)", "NAME_AR": "مدرسة رأس النبع الاولى للبنات", "Latitude": "33°52'56.16\"N", "Longitude": "35°30'31.35\"E" }, "geometry": { "type": "Point", "coordinates": [ 35.508708333333331, 33.882266666666666 ] } },
{ "type": "Feature", "properties": { "ID": 58, "NAME_EN": "Ras Al Nabeh Public School for Girls (2)", "NAME_AR": "مدرسة راس النبع الرسمية الثانية للبنات", "Latitude": "33° 53' 0.0414\"N", "Longitude": "35° 30' 17.571\"E" }, "geometry": { "type": "Point", "coordinates": [ 35.504880833333331, 33.883344833333332 ] } },
{ "type": "Feature", "properties": { "ID": 60, "NAME_EN": "Roupinian Armenian School", "NAME_AR": "مدرسة روبنيان الارمنية", "Latitude": "33°53'29.11\"N", "Longitude": "35°31'57.98\"E" }, "geometry": { "type": "Point", "coordinates": [ 35.532772222222221, 33.891419444444445 ] } },
{ "type": "Feature", "properties": { "ID": 61, "NAME_EN": "Zokak El Blat Mixed Public School", "NAME_AR": "مدرسة زقاق البلاط الرسمية المختلطة", "Latitude": "33°53'34.10\"N", "Longitude": "35°29'53.09\"E" }, "geometry": { "type": "Point", "coordinates": [ 35.498080555555553, 33.892805555555555 ] } },
{ "type": "Feature", "properties": { "ID": 62, "NAME_EN": "Zahrat Al Ihsan School", "NAME_AR": "مدرسة زهرة الاحسان", "Latitude": "33°53'21.20\"N", "Longitude": "35°31'7.42\"E" }, "geometry": { "type": "Point", "coordinates": [ 35.518727777777777, 33.889222222222223 ] } },
{ "type": "Feature", "properties": { "ID": 63, "NAME_EN": "Omar Al Zeanny Mixed Public Middle School", "NAME_AR": "مدرسة عمر الزعني المتوسط الرسمية المختلطة", "Latitude": "33°52'29.88\"N", "Longitude": "35°30'2.37\"E" }, "geometry": { "type": "Point", "coordinates": [ 35.500658333333334, 33.874966666666666 ] } },
{ "type": "Feature", "properties": { "ID": 64, "NAME_EN": "Omar Fakhoury Mixed Elementary School", "NAME_AR": "مدرسة عمر فاخوري الابتدائية المختلطة", "Latitude": "33°52'7.57\"N", "Longitude": "35°29'30.55\"E" }, "geometry": { "type": "Point", "coordinates": [ 35.491819444444445, 33.868769444444446 ] } },
{ "type": "Feature", "properties": { "ID": 65, "NAME_EN": "Karm El Zaytoun School for Girls", "NAME_AR": "مدرسة كرم الزيتون للبنات", "Latitude": "33°53'20.74\"N", "Longitude": "35°31'34.69\"E" }, "geometry": { "type": "Point", "coordinates": [ 35.526302777777779, 33.889094444444446 ] } },
{ "type": "Feature", "properties": { "ID": 67, "NAME_EN": "Mar Elias School", "NAME_AR": "مدرسة مار الياس بطينا", "Latitude": "33°52'45.9\"N ", "Longitude": "35°29'15.0\"E" }, "geometry": { "type": "Point", "coordinates": [ 35.4875, 33.879416666666664 ] } },
{ "type": "Feature", "properties": { "ID": 68, "NAME_EN": "Saint Joseph Elementary School Dhour", "NAME_AR": "مدرسة مار يوسف الضهور الابتدائية", "Latitude": "33°53'32.80\"N", "Longitude": "35°29'47.99\"E" }, "geometry": { "type": "Point", "coordinates": [ 35.496663888888889, 33.892444444444443 ] } },
{ "type": "Feature", "properties": { "ID": 69, "NAME_EN": "Ashrafieh Mixed Public Middle School", "NAME_AR": "مدرسة متوسطة الاشرفية الرسمية المختلطة", "Latitude": "33°53'28.87\"N", "Longitude": "35°31'43.51\"E" }, "geometry": { "type": "Point", "coordinates": [ 35.528752777777775, 33.891352777777776 ] } },
{ "type": "Feature", "properties": { "ID": 70, "NAME_EN": "Wata Al Msaytbeh Mixed Public School", "NAME_AR": "مدرسة وطى المصيطبة الرسمية المختلطة", "Latitude": "33°52'55.31\"N", "Longitude": "35°29'55.83\"E" }, "geometry": { "type": "Point", "coordinates": [ 35.498841666666664, 33.882030555555552 ] } },
{ "type": "Feature", "properties": { "ID": 71, "NAME_EN": "Municipality Parking facing Sleep Comfort", "NAME_AR": "مراب البلدية تجاه سليب كونفورت", "Latitude": "33°53'57.52\"N", "Longitude": "35°32'1.92\"E" }, "geometry": { "type": "Point", "coordinates": [ 35.533866666666668, 33.899311111111111 ] } },
{ "type": "Feature", "properties": { "ID": 72, "NAME_EN": "Fire Brigade Center", "NAME_AR": "مركز أطفائية", "Latitude": "33°53'56.36\"N", "Longitude": "35°31'51.20\"E" }, "geometry": { "type": "Point", "coordinates": [ 35.530888888888889, 33.898988888888887 ] } }
]
}
