{
"type": "FeatureCollection",
"crs": { "type": "name", "properties": { "name": "urn:ogc:def:crs:OGC:1.3:CRS84" } },
                                                                                
"features": [
{ "type": "Feature", "properties": { "ID": 1, "NAME_EN": "Ali Ben Abi Taleb Elementary School", "NAME_AR": "ابتدائية علي بن ابي طالب", "Latitude": 33.886747, "Longitude": 35.507117 }, "geometry": { "type": "Point", "coordinates": [ 35.50711667, 33.88674722 ] } },
{ "type": "Feature", "properties": { "ID": 2, "NAME_EN": "Al Amiliya Secondary School South Building", "NAME_AR": "الثانوية العاملية المبنى الجنوبي", "Latitude": 33.882825, "Longitude": 35.505747 }, "geometry": { "type": "Point", "coordinates": [ 35.50574722, 33.882825 ] } },
{ "type": "Feature", "properties": { "ID": 3, "NAME_EN": "Al Amiliya for Girls", "NAME_AR": "العاملية للبنات", "Latitude": 33.884228, "Longitude": 35.505039 }, "geometry": { "type": "Point", "coordinates": [ 35.50503889, 33.88422778 ] } },
{ "type": "Feature", "properties": { "ID": 4, "NAME_EN": "Armenian Evangelical High School", "NAME_AR": "المدرسة الارمنية الانجيلية العالية", "Latitude": 33.896369, "Longitude": 35.492406 }, "geometry": { "type": "Point", "coordinates": [ 35.49240556, 33.89636944 ] } },
{ "type": "Feature", "properties": { "ID": 5, "NAME_EN": "Sisters of Charity Lazarite High School", "NAME_AR": "المدرسة الثانوية لراهبات المحبة العازارية", "Latitude": 33.889242, "Longitude": 35.522403 }, "geometry": { "type": "Point", "coordinates": [ 35.52240278, 33.88924167 ] } },
{ "type": "Feature", "properties": { "ID": 6, "NAME_EN": "Central Armenian Evangelical School", "NAME_AR": "المدرسة المركزية الارمنية الانجيلية", "Latitude": 33.896297, "Longitude": 35.527656 }, "geometry": { "type": "Point", "coordinates": [ 35.52765556, 33.89629722 ] } },
{ "type": "Feature", "properties": { "ID": 7, "NAME_EN": "Maaniyya School", "NAME_AR": "المدرسة المعنية", "Latitude": 33.890303, "Longitude": 35.495292 }, "geometry": { "type": "Point", "coordinates": [ 35.49529167, 33.89030278 ] } },
{ "type": "Feature", "properties": { "ID": 8, "NAME_EN": "Al Manara Middle School for Girls", "NAME_AR": "المدرسة المنارة المتوسطة للبنات", "Latitude": 33.894394, "Longitude": 35.475228 }, "geometry": { "type": "Point", "coordinates": [ 35.47522778, 33.89439444 ] } },
{ "type": "Feature", "properties": { "ID": 9, "NAME_EN": "Al Makassed Al Islamiya for Boys", "NAME_AR": "المقاصد الإسلامية للبنين", "Latitude": 0.000000, "Longitude": 0.000000 }, "geometry": { "type": "Point", "coordinates": [ 0.0, 0.0 ] } },
{ "type": "Feature", "properties": { "ID": 11, "NAME_EN": "Ras Beirut (1) Complementary Mixed School", "NAME_AR": "تكميلية راس بيروت الاولى المختلطة", "Latitude": 33.896465, "Longitude": 35.473616 }, "geometry": { "type": "Point", "coordinates": [ 35.473616, 33.896465 ] } },
{ "type": "Feature", "properties": { "ID": 12, "NAME_EN": "Ashrafieh (1) High School for Boys", "NAME_AR": "ثانوية الاشرفية الاولى للبنين", "Latitude": 33.883672, "Longitude": 35.517375 }, "geometry": { "type": "Point", "coordinates": [ 35.517375, 33.883672 ] } },
{ "type": "Feature", "properties": { "ID": 13, "NAME_EN": "Al Horj Public High School for Boys", "NAME_AR": "ثانوية الحرج الرسمية للصبيان", "Latitude": 33.884923, "Longitude": 35.500075 }, "geometry": { "type": "Point", "coordinates": [ 35.500075, 33.884923 ] } },
{ "type": "Feature", "properties": { "ID": 14, "NAME_EN": "Al Hariri High School (2) Batrakiyyeh", "NAME_AR": "ثانوية الحريري الثانية البطريركية", "Latitude": 33.891608, "Longitude": 35.496497 }, "geometry": { "type": "Point", "coordinates": [ 35.49649722, 33.89160833 ] } },
{ "type": "Feature", "properties": { "ID": 15, "NAME_EN": "Al Shahid Al Mufti Hassan Khaled High School", "NAME_AR": "ثانوية الشهيد المفتي حسن خالد ) حوض الولاية – برج ابي حيدر(", "Latitude": 33.888528, "Longitude": 35.500103 }, "geometry": { "type": "Point", "coordinates": [ 35.50010278, 33.88852778 ] } },
{ "type": "Feature", "properties": { "ID": 16, "NAME_EN": "Al Makassed Al Islamiyya High School for Girls", "NAME_AR": "ثانوية المقاصد الاسلامية للبنات", "Latitude": 33.890958, "Longitude": 35.501594 }, "geometry": { "type": "Point", "coordinates": [ 35.50159444, 33.89095833 ] } },
{ "type": "Feature", "properties": { "ID": 17, "NAME_EN": "Khaled Ben El Walid Al Makassed High School", "NAME_AR": "ثانوية خالد بن الوليد المقاصد", "Latitude": 33.876592, "Longitude": 35.506544 }, "geometry": { "type": "Point", "coordinates": [ 35.50654444, 33.87659167 ] } },
{ "type": "Feature", "properties": { "ID": 18, "NAME_EN": "Khadija High School", "NAME_AR": "ثانوية خديجة الكبرى", "Latitude": 33.889594, "Longitude": 35.485883 }, "geometry": { "type": "Point", "coordinates": [ 35.48588333, 33.88959444 ] } },
{ "type": "Feature", "properties": { "ID": 19, "NAME_EN": "Ras El Nabeh High School for Boys", "NAME_AR": "ثانوية راس النبع للبنين", "Latitude": 33.883922, "Longitude": 35.504975 }, "geometry": { "type": "Point", "coordinates": [ 35.504975, 33.88392222 ] } },
{ "type": "Feature", "properties": { "ID": 20, "NAME_EN": "René Mouawad High School for Boys", "NAME_AR": "ثانوية رينيه معوض للبنين", "Latitude": 33.891481, "Longitude": 35.486964 }, "geometry": { "type": "Point", "coordinates": [ 35.48696389, 33.89148056 ] } },
{ "type": "Feature", "properties": { "ID": 21, "NAME_EN": "Ali Ben Abi Taleb High School", "NAME_AR": "ثانوية علي بن ابي طالب", "Latitude": 33.887029, "Longitude": 35.511971 }, "geometry": { "type": "Point", "coordinates": [ 35.511971, 33.887029 ] } },
{ "type": "Feature", "properties": { "ID": 22, "NAME_EN": "Omar Farroukh Public High School for Girls", "NAME_AR": "ثانوية عمر فروخ الرسمية للبنات", "Latitude": 33.872814, "Longitude": 35.495428 }, "geometry": { "type": "Point", "coordinates": [ 35.49542778, 33.87281389 ] } },
{ "type": "Feature", "properties": { "ID": 23, "NAME_EN": "Fakhr El Dine Al Maani High School for Girls", "NAME_AR": "ثانوية فخر الدين المعني للبنات", "Latitude": 33.882500, "Longitude": 35.500833 }, "geometry": { "type": "Point", "coordinates": [ 35.50083333, 33.8825 ] } },
{ "type": "Feature", "properties": { "ID": 24, "NAME_EN": "Verdun High School", "NAME_AR": "ثانوية فردان مقابل سيار الدرك", "Latitude": 33.888373, "Longitude": 35.482707 }, "geometry": { "type": "Point", "coordinates": [ 35.482707, 33.8883726 ] } },
{ "type": "Feature", "properties": { "ID": 25, "NAME_EN": "Laure Moukhayzel High School for Girls Shahrouri", "NAME_AR": "ثانوية لور مغيزل للبنات الشحروري", "Latitude": 33.890108, "Longitude": 35.528267 }, "geometry": { "type": "Point", "coordinates": [ 35.52826667, 33.89010833 ] } },
{ "type": "Feature", "properties": { "ID": 26, "NAME_EN": "Dar Al Mouaallimin Wal Mouaallimat", "NAME_AR": "دار المعلمين و المعلمات", "Latitude": 33.896030, "Longitude": 35.527230 }, "geometry": { "type": "Point", "coordinates": [ 35.52723, 33.89603 ] } },
{ "type": "Feature", "properties": { "ID": 27, "NAME_EN": "City International School", "NAME_AR": "سيتي انترناسيونال سكول", "Latitude": 33.894225, "Longitude": 35.497369 }, "geometry": { "type": "Point", "coordinates": [ 35.49736944, 33.894225 ] } },
{ "type": "Feature", "properties": { "ID": 28, "NAME_EN": "Electricité du Liban Company", "NAME_AR": "شركة كهرباء لبنان", "Latitude": 33.896239, "Longitude": 35.521658 }, "geometry": { "type": "Point", "coordinates": [ 35.52165833, 33.89623889 ] } },
{ "type": "Feature", "properties": { "ID": 29, "NAME_EN": "Beirut Municipality Building Block B", "NAME_AR": "مبنى البلدية - جنب فوج الاطفاء -جادة شارل حلو - ( البيت البتروني ) بلو ك B", "Latitude": 33.899281, "Longitude": 35.534164 }, "geometry": { "type": "Point", "coordinates": [ 35.53416389, 33.89928056 ] } },
{ "type": "Feature", "properties": { "ID": 30, "NAME_EN": "Beirut Municipality Building (Mar Mikhael)", "NAME_AR": "مبنى البلدية - مصلحة الصحة (مار ميخائيل)", "Latitude": 33.898340, "Longitude": 35.526410 }, "geometry": { "type": "Point", "coordinates": [ 35.52641, 33.89834 ] } },
{ "type": "Feature", "properties": { "ID": 31, "NAME_EN": "Beirut Municipality Building Block A", "NAME_AR": "مبنى البلدية -جانب فوج الاطفاء -جادة شارل الحلو ( البيت البتروني ) بلو ك A", "Latitude": 33.899281, "Longitude": 35.534164 }, "geometry": { "type": "Point", "coordinates": [ 35.53416389, 33.89928056 ] } },
{ "type": "Feature", "properties": { "ID": 32, "NAME_EN": "Al Ibtihaj Middle School", "NAME_AR": "متوسط الابتهاج قدوره", "Latitude": 0.000000, "Longitude": 0.000000 }, "geometry": { "type": "Point", "coordinates": [ 0.0, 0.0 ] } },
{ "type": "Feature", "properties": { "ID": 33, "NAME_EN": "Middle School for Girls (2)", "NAME_AR": "متوسطة البنات الثانية", "Latitude": 33.885283, "Longitude": 35.497431 }, "geometry": { "type": "Point", "coordinates": [ 35.497431, 33.885283 ] } },
{ "type": "Feature", "properties": { "ID": 34, "NAME_EN": "Al Moustaqbal Mixed Middle School", "NAME_AR": "متوسطة المستقبل المختلطة", "Latitude": 0.000000, "Longitude": 0.000000 }, "geometry": { "type": "Point", "coordinates": [ 0.0, 0.0 ] } },
{ "type": "Feature", "properties": { "ID": 35, "NAME_EN": "Beirut High Middle School for Girls", "NAME_AR": "متوسطة بيروت العالية للبنات", "Latitude": 0.000000, "Longitude": 0.000000 }, "geometry": { "type": "Point", "coordinates": [ 0.0, 0.0 ] } },
{ "type": "Feature", "properties": { "ID": 36, "NAME_EN": "Charles Helou Station Block A", "NAME_AR": "محطة شارل حلو بلوك A", "Latitude": 33.897019, "Longitude": 35.513583 }, "geometry": { "type": "Point", "coordinates": [ 35.51358333, 33.89701944 ] } },
{ "type": "Feature", "properties": { "ID": 37, "NAME_EN": "Charles Helou Station Block B", "NAME_AR": "محطة شارل حلو بلوك B", "Latitude": 33.897019, "Longitude": 35.513583 }, "geometry": { "type": "Point", "coordinates": [ 35.51358333, 33.89701944 ] } },
{ "type": "Feature", "properties": { "ID": 38, "NAME_EN": "Abi Baqr Al Siddiq School Kantari", "NAME_AR": "مدرسة ابي بكر الصديق القنطاري", "Latitude": 33.895600, "Longitude": 35.493075 }, "geometry": { "type": "Point", "coordinates": [ 35.493075, 33.8956 ] } },
{ "type": "Feature", "properties": { "ID": 39, "NAME_EN": "Al Irshad School for Girls", "NAME_AR": "مدرسة الارشاد للبنات", "Latitude": 33.882270, "Longitude": 35.498780 }, "geometry": { "type": "Point", "coordinates": [ 35.49878, 33.88227 ] } },
{ "type": "Feature", "properties": { "ID": 40, "NAME_EN": "Ashrafieh Mixed Public High School (3)", "NAME_AR": "مدرسة الاشرفية الثالثة الرسمية المختلطة", "Latitude": 33.899126, "Longitude": 35.530015 }, "geometry": { "type": "Point", "coordinates": [ 35.530015, 33.899126 ] } },
{ "type": "Feature", "properties": { "ID": 41, "NAME_EN": "Al Imdad School", "NAME_AR": "مدرسة الامداد", "Latitude": 33.890889, "Longitude": 35.499008 }, "geometry": { "type": "Point", "coordinates": [ 35.49900833, 33.89088889 ] } },
{ "type": "Feature", "properties": { "ID": 42, "NAME_EN": "Mir Shakib Arslan Mixed Middle School", "NAME_AR": "مدرسة الامير شكيب ارسلان المتوسطة المختلطة", "Latitude": 33.888800, "Longitude": 35.481777 }, "geometry": { "type": "Point", "coordinates": [ 35.481777, 33.8888 ] } },
{ "type": "Feature", "properties": { "ID": 43, "NAME_EN": "Al Basta Mixed School (2)", "NAME_AR": "مدرسة البسطة الثانية المختلطة", "Latitude": 33.885446, "Longitude": 35.500269 }, "geometry": { "type": "Point", "coordinates": [ 35.500269, 33.885446 ] } },
{ "type": "Feature", "properties": { "ID": 44, "NAME_EN": "Patriarchate School", "NAME_AR": "مدرسة البطريركية", "Latitude": 33.890381, "Longitude": 35.496475 }, "geometry": { "type": "Point", "coordinates": [ 35.496475, 33.89038056 ] } },
{ "type": "Feature", "properties": { "ID": 45, "NAME_EN": "Girls Public School (1)", "NAME_AR": "مدرسة البنات الاولى الرسمية", "Latitude": 33.889347, "Longitude": 35.501047 }, "geometry": { "type": "Point", "coordinates": [ 35.50104722, 33.88934722 ] } },
{ "type": "Feature", "properties": { "ID": 46, "NAME_EN": "Al Tabaris Public School", "NAME_AR": "مدرسة التباريس الرسمية", "Latitude": 33.887388, "Longitude": 35.525344 }, "geometry": { "type": "Point", "coordinates": [ 35.525344, 33.887388 ] } },
{ "type": "Feature", "properties": { "ID": 47, "NAME_EN": "Christian Association School for Girls", "NAME_AR": "مدرسة الجمعية المسيحية للشابات", "Latitude": 33.900001, "Longitude": 35.492464 }, "geometry": { "type": "Point", "coordinates": [ 35.492464, 33.900001 ] } },
{ "type": "Feature", "properties": { "ID": 48, "NAME_EN": "Sagesse School - Kantari", "NAME_AR": "مدرسة الحكمة - القنطاري", "Latitude": 33.897850, "Longitude": 35.494669 }, "geometry": { "type": "Point", "coordinates": [ 35.494669, 33.89785 ] } },
{ "type": "Feature", "properties": { "ID": 51, "NAME_EN": "Tariq Al Jdideh Public Middle School for Girls", "NAME_AR": "مدرسة الطريق الجديدة المتوسطة الرسمية الثانية للبنات", "Latitude": 33.875036, "Longitude": 35.506786 }, "geometry": { "type": "Point", "coordinates": [ 35.50678611, 33.87503611 ] } },
{ "type": "Feature", "properties": { "ID": 52, "NAME_EN": "Frères Sacré Cœur School", "NAME_AR": "مدرسة الفرير – القلب الاقدس A", "Latitude": 33.895096, "Longitude": 35.511864 }, "geometry": { "type": "Point", "coordinates": [ 35.5118641, 33.8950961 ] } },
{ "type": "Feature", "properties": { "ID": 53, "NAME_EN": "Frères Sacré Cœur School", "NAME_AR": "مدرسة الفرير – القلب الاقدس B", "Latitude": 33.895096, "Longitude": 35.511864 }, "geometry": { "type": "Point", "coordinates": [ 35.5118641, 33.8950961 ] } },
{ "type": "Feature", "properties": { "ID": 54, "NAME_EN": "Cappucine School", "NAME_AR": "مدرسة الكبوشية", "Latitude": 33.894839, "Longitude": 35.485078 }, "geometry": { "type": "Point", "coordinates": [ 35.48507778, 33.89483889 ] } },
{ "type": "Feature", "properties": { "ID": 55, "NAME_EN": "Al Nahda Al Wataniyya School", "NAME_AR": "مدرسة النهضة الوطنية", "Latitude": 33.880339, "Longitude": 35.503034 }, "geometry": { "type": "Point", "coordinates": [ 35.503034, 33.880339 ] } },
{ "type": "Feature", "properties": { "ID": 56, "NAME_EN": "Uruguay Public Mixed School", "NAME_AR": "مدرسة اورغواي الرسمية المختلطة", "Latitude": 33.878877, "Longitude": 35.529707 }, "geometry": { "type": "Point", "coordinates": [ 35.529707, 33.878877 ] } },
{ "type": "Feature", "properties": { "ID": 57, "NAME_EN": "Ras Al Nabeh School for Girls (1)", "NAME_AR": "مدرسة رأس النبع الاولى للبنات", "Latitude": 33.882267, "Longitude": 35.508708 }, "geometry": { "type": "Point", "coordinates": [ 35.50870833, 33.88226667 ] } },
{ "type": "Feature", "properties": { "ID": 58, "NAME_EN": "Ras Al Nabeh Public School for Girls (2)", "NAME_AR": "مدرسة راس النبع الرسمية الثانية للبنات", "Latitude": 33.883148, "Longitude": 35.507796 }, "geometry": { "type": "Point", "coordinates": [ 35.507796, 33.883148 ] } },
{ "type": "Feature", "properties": { "ID": 59, "NAME_EN": "Ras Al Nabeh Mixed Public School (2)", "NAME_AR": "مدرسة راس النبع الرسمية الثانية المختلطة", "Latitude": 33.890456, "Longitude": 35.503486 }, "geometry": { "type": "Point", "coordinates": [ 35.503486, 33.890456 ] } },
{ "type": "Feature", "properties": { "ID": 60, "NAME_EN": "Roupinian Armenian School", "NAME_AR": "مدرسة روبنيان الارمنية", "Latitude": 33.891419, "Longitude": 35.532772 }, "geometry": { "type": "Point", "coordinates": [ 35.53277222, 33.89141944 ] } },
{ "type": "Feature", "properties": { "ID": 61, "NAME_EN": "Zokak El Blat Mixed Public School", "NAME_AR": "مدرسة زقاق البلاط الرسمية المختلطة", "Latitude": 33.892806, "Longitude": 35.498081 }, "geometry": { "type": "Point", "coordinates": [ 35.49808056, 33.89280556 ] } },
{ "type": "Feature", "properties": { "ID": 62, "NAME_EN": "Zahrat Al Ihsan School", "NAME_AR": "مدرسة زهرة الاحسان", "Latitude": 33.889222, "Longitude": 35.518728 }, "geometry": { "type": "Point", "coordinates": [ 35.51872778, 33.88922222 ] } },
{ "type": "Feature", "properties": { "ID": 63, "NAME_EN": "Omar Al Zeanny Mixed Public Middle School", "NAME_AR": "مدرسة عمر الزعني المتوسط الرسمية المختلطة", "Latitude": 33.874967, "Longitude": 35.500658 }, "geometry": { "type": "Point", "coordinates": [ 35.50065833, 33.87496667 ] } },
{ "type": "Feature", "properties": { "ID": 64, "NAME_EN": "Omar Fakhoury Mixed Elementary School", "NAME_AR": "مدرسة عمر فاخوري الابتدائية المختلطة", "Latitude": 33.868769, "Longitude": 35.491819 }, "geometry": { "type": "Point", "coordinates": [ 35.49181944, 33.86876944 ] } },
{ "type": "Feature", "properties": { "ID": 65, "NAME_EN": "Karm El Zaytoun School for Girls", "NAME_AR": "مدرسة كرم الزيتون للبنات", "Latitude": 33.889094, "Longitude": 35.526303 }, "geometry": { "type": "Point", "coordinates": [ 35.52630278, 33.88909444 ] } },
{ "type": "Feature", "properties": { "ID": 66, "NAME_EN": "Kevork Shatlabashian Armenian School", "NAME_AR": "مدرسة كيورك شاتلباشيان الارمنية", "Latitude": 33.894490, "Longitude": 35.527400 }, "geometry": { "type": "Point", "coordinates": [ 35.5274, 33.89449 ] } },
{ "type": "Feature", "properties": { "ID": 67, "NAME_EN": "Mar Elias School", "NAME_AR": "مدرسة مار الياس بطينا", "Latitude": 33.878639, "Longitude": 35.487403 }, "geometry": { "type": "Point", "coordinates": [ 35.487403, 33.878639 ] } },
{ "type": "Feature", "properties": { "ID": 68, "NAME_EN": "Saint Joseph Elementary School Dhour", "NAME_AR": "مدرسة مار يوسف الضهور الابتدائية", "Latitude": 33.892444, "Longitude": 35.496664 }, "geometry": { "type": "Point", "coordinates": [ 35.49666389, 33.89244444 ] } },
{ "type": "Feature", "properties": { "ID": 69, "NAME_EN": "Ashrafieh Mixed Public Middle School", "NAME_AR": "مدرسة متوسطة الاشرفية الرسمية المختلطة", "Latitude": 33.891353, "Longitude": 35.528753 }, "geometry": { "type": "Point", "coordinates": [ 35.52875278, 33.89135278 ] } },
{ "type": "Feature", "properties": { "ID": 70, "NAME_EN": "Wata Al Msaytbeh Mixed Public School", "NAME_AR": "مدرسة وطى المصيطبة الرسمية المختلطة", "Latitude": 33.876585, "Longitude": 35.491988 }, "geometry": { "type": "Point", "coordinates": [ 35.491988, 33.876585 ] } },
{ "type": "Feature", "properties": { "ID": 71, "NAME_EN": "Municipality Parking facing Sleep Comfort", "NAME_AR": "مراب البلدية تجاه سليب كونفورت", "Latitude": 33.899311, "Longitude": 35.533867 }, "geometry": { "type": "Point", "coordinates": [ 35.53386667, 33.89931111 ] } },
{ "type": "Feature", "properties": { "ID": 72, "NAME_EN": "Fire Brigade Center", "NAME_AR": "مركز أطفائية", "Latitude": 33.898989, "Longitude": 35.530889 }, "geometry": { "type": "Point", "coordinates": [ 35.53088889, 33.89898889 ] } },
{ "type": "Feature", "properties": { "ID": 73, "NAME_EN": "Sagesse School - Hikme Street", "NAME_AR": "مدرسة الحكمة - شارع الحكمة", "Latitude": 33.892299, "Longitude": 35.521608 }, "geometry": { "type": "Point", "coordinates": [ 35.521608, 33.892299 ] } }
]
}
